City_ID,City,Lat,Lng,Max Temp,Humidity,Cloudiness,Wind Speed,Country,Date
0,ponta delgada,37.7333,-25.6667,297.55,88,40,3.09,PT,1722894578
1,yellowknife,62.456,-114.3525,295.6,41,75,1.79,CA,1722894579
2,ratnagiri,16.9833,73.3,298.97,90,100,4.32,IN,1722894580
3,feodosiya,45.0333,35.3833,297.28,62,49,5.13,UA,1722894582
4,coahuayana de hidalgo,18.7,-103.6583,304.22,67,97,3.94,MX,1722894583
5,kourou,5.1552,-52.6478,303.18,81,1,3.4,GF,1722894584
6,haiku-pauwela,20.9219,-156.3051,303.24,61,40,10.29,US,1722894585
7,manicore,-5.8092,-61.3003,303.63,31,41,1.02,BR,1722894586
8,mulayjah,27.271,48.4242,307.48,12,100,5.09,SA,1722894587
9,murzuq,25.9155,13.9184,305.24,13,0,5.11,LY,1722894588
10,iqaluit,63.7506,-68.5145,282.0,66,100,4.12,CA,1722894589
11,dampit,-8.2116,112.7493,292.95,94,76,1.31,ID,1722894590
12,new norfolk,-42.7826,147.0587,284.22,90,100,2.42,AU,1722894591
13,lihue,21.9789,-159.3672,302.73,69,0,4.63,US,1722894592
14,vargarda,58.0371,12.8091,289.75,97,100,1.37,SE,1722894593
15,vadso,70.0744,29.7487,284.64,93,20,4.63,NO,1722894594
16,albany,42.6001,-73.9662,301.86,74,81,3.7,US,1722894416
17,afaahiti,-17.75,-149.2833,302.08,78,57,6.52,PF,1722894596
18,edinburgh of the seven seas,-37.0676,-12.3116,286.63,95,96,10.1,SH,1722894597
19,fisterra,42.9049,-9.2629,294.27,95,36,1.92,ES,1722894598
20,tazovsky,67.4667,78.7,278.41,80,70,4.96,RU,1722894599
21,port-aux-francais,-49.35,70.2167,274.55,84,78,9.54,TF,1722894600
22,udachny,66.4167,112.4,282.46,84,98,8.48,RU,1722894602
23,bethel,41.3712,-73.414,303.37,70,26,3.5,US,1722894603
24,keflavik,64.0049,-22.5624,284.1,100,75,4.12,IS,1722894604
25,remire-montjoly,4.9167,-52.2667,303.17,70,0,3.6,GF,1722894605
26,margaret river,-33.95,115.0667,289.28,87,100,8.63,AU,1722894606
27,ola,59.5833,151.2833,286.88,78,100,2.51,RU,1722894607
28,karratha,-20.7377,116.8463,289.65,44,52,4.56,AU,1722894608
29,anna regina,7.2644,-58.5077,300.72,78,92,3.25,GY,1722894610
30,blackmans bay,-43.0167,147.3167,283.56,72,100,1.34,AU,1722894611
31,pozarevac,44.6153,21.1825,297.1,43,92,4.3,RS,1722894612
32,gaya,24.7833,85.0,302.22,74,100,2.36,IN,1722894613
33,thompson,55.7435,-97.8558,294.24,35,75,3.09,CA,1722894614
34,olonkinbyen,70.9221,-8.7187,279.53,95,100,2.7,SJ,1722894615
35,jamestown,42.097,-79.2353,297.95,89,20,3.58,US,1722894456
36,aasiaat,68.7098,-52.8699,277.43,88,61,1.84,GL,1722894617
37,ingeniero jacobacci,-41.3427,-69.5448,279.81,59,49,3.89,AR,1722894619
38,chos malal,-37.3781,-70.2709,280.19,69,16,3.2,AR,1722894620
39,satkania,22.0796,92.0572,300.14,98,100,2.14,BD,1722894621
40,east london,-33.0153,27.9116,287.07,52,0,2.5,ZA,1722894622
41,hilo,19.7297,-155.09,301.0,76,0,4.63,US,1722894623
42,ribeira grande,38.5167,-28.7,298.37,88,40,5.14,PT,1722894624
43,tiksi,71.6872,128.8694,286.08,73,100,3.7,RU,1722894625
44,argo,37.6333,22.7333,299.7,65,0,1.27,GR,1722894626
45,port alfred,-33.5906,26.891,286.63,62,0,3.91,ZA,1722894627
46,puerto natales,-51.7236,-72.4875,273.4,86,75,2.06,CL,1722894370
47,waitangi,-43.9535,-176.5597,282.49,94,68,0.45,NZ,1722894629
48,sirte,31.2089,16.5887,301.41,65,0,5.48,LY,1722894630
49,czechowice-dziedzice,49.9134,19.0048,289.72,91,95,2.09,PL,1722894631
50,sungai penuh,-2.0833,101.3833,289.94,95,30,2.56,ID,1722894632
51,freeport,40.6576,-73.5832,304.35,64,0,6.69,US,1722894633
52,hermanus,-34.4187,19.2345,283.04,78,4,5.52,ZA,1722894634
53,punta arenas,-53.15,-70.9167,273.21,80,20,4.12,CL,1722894635
54,shangzhi,45.2167,127.9667,295.64,97,71,2.48,CN,1722894636
55,tete,-16.1564,33.5867,292.2,45,0,0.0,MZ,1722894637
56,mana,5.6592,-53.7767,300.36,79,4,5.71,GF,1722894639
57,isafjordur,66.0755,-23.124,279.89,96,100,10.33,IS,1722894640
58,portales,34.1862,-103.3344,307.7,14,0,4.29,US,1722894641
59,adamstown,-25.066,-130.1015,292.5,68,60,5.32,PN,1722894642
60,baracoa,20.3467,-74.4958,302.06,80,100,2.94,CU,1722894644
61,wote,-1.7808,37.6288,289.4,88,31,0.77,KE,1722894645
62,sisimiut,66.9395,-53.6735,279.76,79,74,1.46,GL,1722894646
63,brookings,44.3114,-96.7984,293.15,88,100,5.66,US,1722894462
64,hamilton,39.1834,-84.5333,307.64,51,20,6.17,US,1722894648
65,greymouth,-42.4667,171.2,281.55,83,10,1.58,NZ,1722894649
66,klyuchi,52.2667,79.1667,292.1,65,58,2.82,RU,1722894650
67,port elizabeth,-33.918,25.5701,285.55,60,0,2.57,ZA,1722894651
68,hawaiian paradise park,19.5933,-154.9731,300.88,73,0,4.63,US,1722894653
69,koungheul,13.9833,-14.8,298.65,90,100,4.18,SN,1722894654
70,college,64.8569,-147.8028,301.52,40,20,2.57,US,1722894655
71,port isabel,26.0734,-97.2086,306.52,74,0,6.17,US,1722894656
72,jerome,42.7241,-114.5186,307.61,21,0,3.09,US,1722894493
73,zhezqazghan,47.7833,67.7667,296.42,37,4,3.3,KZ,1722894658
74,wailua homesteads,22.0669,-159.378,302.39,69,0,4.63,US,1722894659
75,peace river,56.2501,-117.286,288.32,88,100,4.12,CA,1722894570
76,dudinka,69.4058,86.1778,280.35,71,61,8.18,RU,1722894661
77,badger,64.8,-147.5333,301.47,40,20,2.57,US,1722894662
78,mejit,10.2753,170.8646,301.46,80,100,6.14,MH,1722894663
79,caldwell,43.6629,-116.6874,311.08,30,0,3.6,US,1722894664
80,salida,37.7058,-121.0849,307.18,21,0,5.14,US,1722894665
81,happy valley-goose bay,53.3168,-60.3315,298.32,36,40,3.6,CA,1722894666
82,harstad,68.799,16.5293,289.81,71,81,0.54,NO,1722894667
83,atafu village,-8.5421,-172.5159,301.34,74,71,2.76,TK,1722894668
84,antonio enes,-16.2325,39.9086,294.22,85,2,3.22,MZ,1722894669
85,anadyr,64.75,177.4833,277.43,86,75,5.0,RU,1722894671
86,vegreville,53.5001,-112.0518,288.45,98,100,4.12,CA,1722894672
87,darhan,49.4867,105.9228,288.49,89,100,1.02,MN,1722894673
88,ilulissat,69.2167,-51.1,282.16,81,20,2.57,GL,1722894674
89,grytviken,-54.2811,-36.5092,263.66,77,100,5.51,GS,1722894675
90,kittila,67.6647,24.8936,286.23,88,0,1.03,FI,1722894678
91,acarau,-2.8856,-40.12,298.57,76,99,7.99,BR,1722894679
92,suva,-18.1416,178.4415,296.86,69,40,4.12,FJ,1722894680
93,fale old settlement,-9.3852,-171.2468,300.97,76,100,5.02,TK,1722894682
94,port mathurin,-19.6833,63.4167,295.55,77,13,7.53,MU,1722894683
95,rio grande,-32.035,-52.0986,291.21,94,64,6.04,BR,1722894684
96,purranque,-40.9167,-73.1667,281.78,96,100,2.69,CL,1722894685
97,mount isa,-20.7333,139.5,289.02,63,75,3.09,AU,1722894686
98,coquimbo,-29.9533,-71.3436,288.0,57,0,5.14,CL,1722894651
99,lalibela,12.0333,39.0333,286.99,96,100,0.6,ET,1722894688
100,naryn,41.4287,75.9911,284.58,70,5,2.1,KG,1722894690
101,hammerfest,70.6634,23.6821,289.96,57,8,3.78,NO,1722894691
102,lormi,22.2833,81.7333,298.61,91,100,1.53,IN,1722894692
103,toyooka,35.5333,134.8333,300.25,84,5,0.6,JP,1722894693
104,sitka,57.0531,-135.33,293.09,68,20,2.06,US,1722894694
105,tralee,52.2704,-9.7026,284.3,93,0,2.32,IE,1722894695
106,nova xavantina,-14.6667,-52.35,298.52,28,0,1.22,BR,1722894696
107,blenheim,-41.516,173.9528,280.66,75,0,2.24,NZ,1722894697
108,isangel,-19.55,169.2667,295.21,73,75,0.0,VU,1722894698
109,king city,36.2127,-121.126,313.1,12,16,4.16,US,1722894699
110,egilsstadir,65.2653,-14.3948,283.1,93,75,3.6,IS,1722894700
111,galveston,29.3669,-94.9669,308.72,63,0,4.12,US,1722894701
112,flying fish cove,-10.4217,105.6791,296.97,88,100,5.66,CX,1722894702
113,naze,28.3667,129.4833,301.66,85,34,3.44,JP,1722894703
114,la'ie,21.6477,-157.9253,303.13,73,91,2.68,US,1722894704
115,port macquarie,-31.4333,152.9167,285.41,96,100,1.34,AU,1722894705
116,vilyuchinsk,52.9306,158.4028,287.3,78,100,0.71,RU,1722894706
117,akjoujt,19.6969,-14.4164,305.15,48,97,8.33,MR,1722894708
118,ghat,24.9647,10.1728,305.43,16,0,4.59,LY,1722894709
119,la passe,45.5549,-0.8967,295.28,90,0,4.03,FR,1722894710
120,bilibino,68.0546,166.4372,276.87,61,92,1.14,RU,1722894711
121,ondjiva,-17.0667,15.7333,291.17,15,0,0.0,AO,1722894712
122,swakopmund,-22.6833,14.5333,285.36,83,0,2.59,NA,1722894713
123,tabou,4.423,-7.3528,297.22,86,100,3.47,CI,1722894715
124,sambava,-14.2667,50.1667,292.87,90,63,3.25,MG,1722894716
125,benguela,-12.5763,13.4055,293.86,85,100,1.58,AO,1722894717
126,kodiak,57.79,-152.4072,285.88,100,100,2.06,US,1722894718
127,puerto ayora,-0.7393,-90.3518,298.13,80,60,4.57,EC,1722894721
128,ushuaia,-54.8,-68.3,271.96,69,0,1.03,AR,1722894701
129,nova sintra,14.8667,-24.7167,299.85,81,49,2.34,CV,1722894723
130,camabatela,-8.1881,15.375,289.71,79,19,2.97,AO,1722894724
131,omutinskiy,56.4745,67.6709,288.62,96,100,2.96,RU,1722894725
132,constantia,44.1833,28.65,293.54,63,45,5.06,RO,1722894726
133,mata-utu,-13.2816,-176.1745,299.71,75,6,3.73,WF,1722894727
134,beroroha,-21.6667,45.1667,288.92,50,0,0.77,MG,1722894728
135,cabo san lucas,22.8909,-109.9124,306.76,53,0,4.12,MX,1722894558
136,lebu,-37.6167,-73.65,281.44,84,46,3.97,CL,1722894730
137,barguzin,53.6167,109.6167,287.44,81,0,0.24,RU,1722894731
138,talcahuano,-36.7167,-73.1167,283.97,71,75,3.6,CL,1722894609
139,avarua,-21.2078,-159.775,299.18,78,75,5.66,CK,1722894734
140,invercargill,-46.4,168.35,281.49,78,71,4.47,NZ,1722894462
141,prineville,44.2999,-120.8345,308.21,22,0,2.57,US,1722894736
142,kharp,66.8014,65.8081,278.0,79,1,1.96,RU,1722894737
143,vorgashor,67.5833,63.95,277.79,76,8,2.58,RU,1722894738
144,ha tien,10.3833,104.4833,299.89,84,64,4.78,VN,1722894739
145,nenjiang,49.1833,125.2167,294.48,74,0,0.48,CN,1722894740
146,puerto santa,-8.9906,-78.6456,291.47,79,3,6.1,PE,1722894741
147,kruisfontein,-34.0033,24.7314,280.31,56,0,2.49,ZA,1722894742
148,georgetown,5.4112,100.3354,301.11,78,40,3.09,MY,1722894543
149,kerrville,30.0474,-99.1403,308.44,47,40,3.09,US,1722894744
150,papatowai,-46.5619,169.4708,281.57,68,27,3.95,NZ,1722894745
151,kimberley,-28.7323,24.7623,273.98,100,0,1.03,ZA,1722894747
152,alton north (historical),26.2953,-98.3045,310.9,44,20,3.09,US,1722894748
153,tanjung selor,2.8372,117.3642,296.46,98,73,0.69,ID,1722894749
154,san patricio,28.017,-97.5169,307.55,45,51,6.15,US,1722894750
155,mossel bay,-34.1831,22.146,283.11,62,0,2.81,ZA,1722894691
156,whitecourt,54.1502,-115.6855,286.73,100,100,4.63,CA,1722894753
157,wenchang,30.904,118.4887,298.34,73,75,1.33,CN,1722894754
158,sylvan lake,52.3168,-114.0853,291.91,71,75,4.12,CA,1722894755
159,belinskiy,52.9647,43.4165,293.42,53,100,1.75,RU,1722894756
160,maryborough,-25.5333,152.7,289.13,77,33,1.23,AU,1722894758
161,poxoreo,-15.8372,-54.3892,300.49,27,0,2.57,BR,1722894759
162,aitape,-3.1374,142.3475,298.61,84,92,1.33,PG,1722894760
163,hachinohe,40.5,141.5,297.25,94,100,1.03,JP,1722894761
164,st. john's,47.5649,-52.7093,295.81,89,75,9.26,CA,1722894762
165,bandarbeyla,9.4942,50.8122,297.88,83,74,11.53,SO,1722894763
166,p'ot'i,42.1462,41.672,296.42,84,6,0.68,GE,1722894764
167,ancud,-41.8697,-73.8203,281.15,92,100,9.25,CL,1722894765
168,torres,-29.3353,-49.7269,294.72,99,43,1.88,BR,1722894767
169,susuman,62.7833,148.1667,288.75,52,99,3.78,RU,1722894768
170,alofi,-19.0595,-169.9187,296.09,88,75,4.63,NU,1722894769
171,huanggang,23.677,116.9996,299.09,89,1,1.23,CN,1722894770
172,forster,-32.1667,152.5167,285.03,100,77,4.46,AU,1722894771
173,ust-nera,64.5667,143.2,288.85,52,100,2.13,RU,1722894772
174,gaspe,48.8334,-64.4819,295.27,60,20,6.17,CA,1722894773
175,beira,-19.8436,34.8389,297.2,88,20,5.81,MZ,1722894774
176,ouadda,8.0777,22.4007,293.07,97,41,1.8,CF,1722894775
177,aykhal,66.0,111.5,281.87,82,91,6.73,RU,1722894776
178,nuriootpa,-34.4833,139.0,278.92,93,55,2.11,AU,1722894777
179,nogliki,51.8333,143.1667,288.47,84,94,3.03,RU,1722894778
180,yuzhno-kurilsk,44.0306,145.8556,289.31,99,100,2.92,RU,1722894779
181,fort st. john,56.2499,-120.8529,290.09,67,75,2.06,CA,1722894780
182,stanley,54.868,-1.6985,293.16,83,40,3.6,GB,1722894782
183,kone,-21.0595,164.8658,294.14,54,5,1.48,NC,1722894783
184,dawson creek,55.7666,-120.2362,288.95,77,75,0.0,CA,1722894785
185,kotel,42.8833,26.45,292.9,80,41,1.11,BG,1722894786
186,vila velha,-20.3297,-40.2925,296.45,89,0,3.09,BR,1722894732
187,shingu,33.7333,135.9833,299.94,89,66,0.62,JP,1722894788
188,bredasdorp,-34.5322,20.0403,280.99,84,0,3.34,ZA,1722894789
189,dryden,49.7833,-92.7503,294.31,37,0,2.57,CA,1722894790
190,santana,-0.0583,-51.1817,304.25,66,20,4.12,BR,1722894791
191,saipan,15.1355,145.701,301.54,83,0,3.09,MP,1722894793
192,lompoc,34.6391,-120.4579,299.03,68,0,6.69,US,1722894794
193,luwuk,-0.9516,122.7875,294.8,93,98,1.68,ID,1722894796
194,weno,7.4515,151.8468,301.12,83,75,2.57,FM,1722894798
195,ginir,7.1333,40.7,289.26,84,90,4.51,ET,1722894799
196,uruzgan,32.8333,66.0,298.68,38,0,0.63,AF,1722894800
197,mahina,-17.5065,-149.489,303.02,58,20,6.69,PF,1722894802
198,batumi,41.6416,41.6359,296.14,83,75,3.6,GE,1722894803
199,veinticinco de mayo,-35.4323,-60.1727,288.7,87,100,1.34,AR,1722894804
200,mount gambier,-37.8333,140.7667,279.06,100,92,3.03,AU,1722894805
201,kupang,-10.1667,123.5833,298.47,78,20,3.6,ID,1722894806
202,san luis de la loma,17.2706,-100.8939,302.61,75,100,2.9,MX,1722894807
203,colonia,50.9333,6.95,293.68,80,0,2.57,DE,1722894636
204,freetown,8.484,-13.2299,299.99,83,75,4.63,SL,1722894809
205,longyearbyen,78.2186,15.6401,281.06,93,40,4.63,SJ,1722894810
206,kargat,55.1956,80.2811,286.69,92,17,3.04,RU,1722894812
207,shepetivka,50.1855,27.0637,289.09,94,100,2.4,UA,1722894813
208,santa cruz,-17.8,-63.1667,301.18,65,75,8.23,BO,1722894347
209,kyshtovka,56.555,76.6271,287.66,95,96,2.49,RU,1722894815
210,wellington,-41.2866,174.7756,281.96,89,20,5.66,NZ,1722894713
211,severo-yeniseyskiy,60.3725,93.0408,286.67,89,100,1.74,RU,1722894817
212,baise city,23.8997,106.6133,297.79,95,7,0.49,CN,1722894818
213,uturoa,-16.7333,-151.4333,298.96,76,51,7.05,PF,1722894819
214,la sarre,48.8002,-79.1996,292.62,49,73,3.72,CA,1722894820
215,lazaro cardenas,17.9583,-102.2,302.24,73,100,3.14,MX,1722894821
216,sumbe,-11.2061,13.8437,293.07,91,45,1.93,AO,1722894822
217,talara,-4.5772,-81.2719,295.57,73,0,7.2,PE,1722894823
218,novomyrhorod,48.7811,31.642,291.62,51,99,2.82,UA,1722894824
219,turkmenbasy,40.0222,52.9552,298.58,73,0,2.06,TM,1722894826
220,kapuskasing,49.4169,-82.4331,293.2,49,75,7.2,CA,1722894827
221,selimpasa,41.0558,28.379,297.31,70,6,3.63,TR,1722894828
222,opuwo,-18.0607,13.84,291.02,30,0,1.82,NA,1722894829
223,chonchi,-42.6128,-73.8092,281.71,99,100,0.38,CL,1722894830
224,churapcha,62.0025,132.4325,283.28,91,100,5.58,RU,1722894831
225,west island,-12.1568,96.8225,298.14,78,23,4.12,CC,1722894832
226,melfi,40.9965,15.6514,296.54,60,7,1.41,IT,1722894833
227,nar'yan-mar,67.6713,53.087,277.93,87,6,4.39,RU,1722894834
228,korla,41.7597,86.1469,301.69,34,90,2.05,CN,1722894835
229,salekhard,66.53,66.6019,278.39,72,20,5.22,RU,1722894836
230,merizo village,13.2658,144.6691,300.46,94,99,2.56,GU,1722894837
231,nelson bay,-32.7167,152.15,284.87,96,75,0.45,AU,1722894838
232,bay roberts,47.5999,-53.2648,296.01,96,100,4.73,CA,1722894839
233,jawhar,2.7809,45.5005,296.04,79,3,5.88,SO,1722894841
234,thunder bay,48.4001,-89.3168,297.14,38,100,4.12,CA,1722894726
235,namibe,-15.1961,12.1522,291.48,85,94,0.4,AO,1722894843
236,alesund,62.4723,6.1549,290.56,93,100,1.03,NO,1722894844
237,hanzhong,33.0728,107.0303,296.64,89,39,0.9,CN,1722894845
238,hami,42.8,93.45,300.28,26,1,2.72,CN,1722894846
239,brisas de zicatela,15.8369,-97.0419,302.03,73,68,1.73,MX,1722894847
240,hadibu,12.65,54.0333,298.56,81,37,8.96,YE,1722894848
241,port hope,43.9408,-82.7127,296.49,78,100,4.12,US,1722894849
242,maryville,35.7565,-83.9705,307.03,57,20,5.14,US,1722894781
243,tobelo,1.7284,128.0095,299.43,86,100,1.6,ID,1722894851
244,port lincoln,-34.7333,135.8667,282.6,90,99,4.39,AU,1722894852
245,ciudad guayana,8.3533,-62.6528,298.44,91,100,1.17,VE,1722894853
246,qaqortoq,60.7167,-46.0333,281.73,78,100,1.46,GL,1722894854
247,karonga,-9.9333,33.9333,292.62,55,4,2.21,MW,1722894855
248,leticia,-4.2153,-69.9406,306.18,62,40,2.06,CO,1722894856
249,turtas,58.9417,69.1325,290.64,76,91,0.31,RU,1722894857
250,immokalee,26.4187,-81.4173,302.12,96,40,4.12,US,1722894859
251,oodweyne,9.4092,45.064,297.64,57,100,5.12,SO,1722894860
252,alice springs,-23.7,133.8833,274.9,100,0,2.57,AU,1722894861
253,road town,18.4167,-64.6167,304.2,70,40,6.69,VG,1722894862
254,kerman,30.2832,57.0788,298.07,22,0,2.06,IR,1722894863
255,sampit,-2.5333,112.95,295.58,94,97,0.69,ID,1722894864
256,codrington,-38.2667,141.9667,279.4,96,89,5.76,AU,1722894865
257,sligo,54.2697,-8.4694,286.31,88,20,2.75,IE,1722894683
258,cadale,2.7603,46.3222,297.62,80,20,8.91,SO,1722894868
259,sao vicente,-23.9631,-46.3919,303.3,59,22,0.51,BR,1722894573
260,kristiansund,63.1115,7.732,290.18,96,100,3.09,NO,1722894870
261,crane,31.3974,-102.3501,308.16,26,39,3.18,US,1722894871
262,sarykemer,43.0,71.5,294.86,37,0,3.28,KZ,1722894872
263,enoch,37.7733,-113.0244,309.29,20,0,5.66,US,1722894873
264,fort bragg,35.139,-79.006,302.06,80,100,3.09,US,1722894875
265,kendari,-3.945,122.4989,295.72,96,48,0.84,ID,1722894876
266,tring,51.7947,-0.6582,292.88,81,69,0.45,GB,1722894877
267,rockport,28.0206,-97.0544,307.18,77,0,4.63,US,1722894879
268,loukhi,66.0764,33.0381,282.95,83,93,1.01,RU,1722894880
269,at-bashi,41.1702,75.8106,286.35,74,47,0.43,KG,1722894881
270,hastings,50.8552,0.5729,291.42,82,0,2.92,GB,1722894882
271,tuy hoa,13.0833,109.3,297.46,92,89,2.46,VN,1722894883
272,qamdo,31.1667,97.2333,279.51,62,15,0.51,CN,1722894884
273,pola de siero,43.3923,-5.6634,293.77,93,14,1.34,ES,1722894885
274,fortuna,40.5982,-124.1573,290.36,92,100,2.57,US,1722894886
275,iquique,-20.2208,-70.1431,290.17,85,34,4.76,CL,1722894667
276,westport,41.1415,-73.3579,303.77,64,0,4.63,US,1722894888
277,saint-philippe,-21.3585,55.7679,291.92,78,25,4.45,RE,1722894889
278,kapa'a,22.0752,-159.319,303.14,69,75,5.14,US,1722894890
279,daliang,22.8504,113.247,302.26,72,100,1.04,CN,1722894893
280,enewetak,11.3474,162.3373,301.98,72,88,2.47,MH,1722894803
281,kangding,30.0513,101.9603,286.36,68,5,2.85,CN,1722894895
282,lautoka,-17.6167,177.4667,296.07,60,20,2.57,FJ,1722894898
283,maragogi,-9.0122,-35.2225,296.42,78,29,4.57,BR,1722894899
284,ejura,7.3856,-1.3562,296.94,79,88,4.11,GH,1722894900
285,gadzhiyevo,69.2551,33.3362,281.58,78,2,1.64,RU,1722894901
286,peniche,39.3558,-9.3811,294.38,93,0,7.18,PT,1722894902
287,labrador city,52.9463,-66.9114,286.1,67,100,5.66,CA,1722894903
288,calvi,42.5,8.8333,296.5,78,0,1.54,FR,1722894904
289,siracusa,37.0881,15.2792,299.92,76,14,2.14,IT,1722894905
290,kedrovyy,56.1667,91.8167,289.38,99,94,1.87,RU,1722894906
291,lorengau,-2.0226,147.2712,300.83,81,86,3.77,PG,1722894907
292,fallon,39.4735,-118.7774,310.08,18,40,3.09,US,1722894908
293,vila franca do campo,37.7167,-25.4333,297.38,89,39,2.41,PT,1722894909
294,nagai,38.1036,140.035,297.29,98,62,0.65,JP,1722894910
295,mapimi,25.8167,-103.85,306.59,23,2,5.31,MX,1722894912
296,dwarka,22.2394,68.9678,300.71,87,100,9.53,IN,1722894913
297,meadow lake,34.8014,-106.5436,307.97,30,9,5.2,US,1722894914
298,kill devil hills,36.0307,-75.676,301.47,82,100,8.23,US,1722894915
299,kragero,58.8693,9.4149,290.07,72,100,2.68,NO,1722894916
300,tucuma,-0.1833,-50.05,300.54,74,4,4.87,BR,1722894917
301,tarawa,1.419,172.984,302.42,64,91,4.94,KI,1722894918
302,laguna,38.421,-121.4238,311.58,27,0,3.6,US,1722894919
303,prince rupert,54.3161,-130.3201,290.2,91,40,3.6,CA,1722894920
304,sittwe,20.15,92.9,298.94,90,100,3.85,MM,1722894923
305,port douglas,-16.4833,145.4667,294.21,74,8,1.68,AU,1722894924
306,port augusta,-32.5,137.7667,280.58,80,24,1.55,AU,1722894925
307,sungailiat,-1.85,106.1333,298.86,79,100,4.44,ID,1722894926
308,talnakh,69.4865,88.3972,281.64,69,38,1.38,RU,1722894927
309,nizhneudinsk,54.9076,99.0276,287.18,91,63,1.22,RU,1722894928
310,kuqa,41.7278,82.9364,301.44,31,99,2.18,CN,1722894929
311,belmonte,-15.8631,-38.8828,295.93,69,44,2.69,BR,1722894930
312,astrakhan,46.3497,48.0408,299.08,53,0,1.0,RU,1722894931
313,kovalam,8.3667,76.9967,299.2,83,75,2.06,IN,1722894932
314,utrik,11.2278,169.8474,301.26,81,97,6.67,MH,1722894933
315,arraial do cabo,-22.9661,-42.0278,297.07,78,0,7.72,BR,1722894934
316,pisco,-13.7,-76.2167,291.49,77,0,4.63,PE,1722894935
317,usinsk,65.9939,57.5281,280.5,73,48,5.88,RU,1722894937
318,kwaksan,39.6875,125.0828,296.88,97,93,2.12,KP,1722894938
319,ulsteinvik,62.3432,5.8487,290.55,91,100,0.45,NO,1722894940
320,pandan,14.0453,124.1694,300.43,84,100,5.57,PH,1722894941
321,barakani,-12.1356,44.4317,296.66,73,33,2.59,KM,1722894942
322,tselina,46.5338,41.0328,293.33,78,1,2.57,RU,1722894943
323,nargund,15.7167,75.3833,295.74,89,95,4.34,IN,1722894944
324,driefontein,-27.0177,30.4498,281.1,92,77,1.19,ZA,1722894945
325,morant bay,17.8815,-76.4093,305.94,76,29,4.37,JM,1722894946
326,okhotsk,59.3833,143.3,285.18,88,100,8.82,RU,1722894947
327,yeniseysk,58.4497,92.1703,288.1,98,32,0.64,RU,1722894948
328,cooper's town,26.8667,-77.5167,301.99,78,100,5.53,BS,1722894949
329,nantucket,41.2835,-70.0995,300.42,83,0,4.63,US,1722894950
330,gazli,40.1333,63.45,301.8,19,0,5.18,UZ,1722894951
331,kurmuk,10.55,34.2833,292.58,94,100,1.12,SD,1722894952
332,adrar,20.5022,-10.0711,309.85,20,13,5.21,MR,1722894953
333,bikenibeu village,1.3673,173.1241,302.25,64,84,5.05,KI,1722894954
334,iskateley,67.6803,53.1512,277.9,87,6,4.36,RU,1722894956
335,centerport,40.8854,-73.3762,303.4,62,0,5.66,US,1722894957
336,barranca,-10.75,-77.7667,290.86,78,15,5.9,PE,1722894958
337,kayangel,8.0823,134.7173,301.92,74,100,4.23,PW,1722894959
338,whitehorse,60.7161,-135.0538,298.76,32,20,4.63,CA,1722894960
339,bhimunipatnam,17.8833,83.4333,300.42,81,100,3.77,IN,1722894961
340,prado,-17.3411,-39.2208,295.24,76,0,2.67,BR,1722894963
341,akureyri,65.6835,-18.0878,284.11,87,100,4.12,IS,1722894964
342,benghazi,32.1167,20.0667,301.52,68,0,4.9,LY,1722894965
343,tual,-5.6667,132.75,298.39,85,81,8.97,ID,1722894966
344,kimbe,-5.5502,150.1429,299.52,82,100,1.91,PG,1722894967
345,erenhot,43.6475,111.9767,295.57,37,0,3.59,CN,1722894968
346,puerto deseado,-47.7503,-65.8938,277.55,76,100,6.93,AR,1722894969
347,turpan,42.9333,89.1667,308.97,17,43,0.83,CN,1722894970
348,limassol,34.675,33.0333,300.19,61,0,6.69,CY,1722894971
349,queenstown,-31.8976,26.8753,280.47,28,0,2.08,ZA,1722894972
350,whangarei,-35.7317,174.3239,285.73,73,10,1.92,NZ,1722894973
351,port blair,11.6667,92.75,300.17,89,75,1.03,IN,1722894975
352,norderney,53.7,7.15,292.05,77,1,0.89,DE,1722894976
353,karasu,41.071,30.7854,294.02,84,0,1.35,TR,1722894977
354,omoku,5.3435,6.6532,298.24,91,99,1.89,NG,1722894978
355,salina,38.8403,-97.6114,313.17,24,0,5.66,US,1722894753
356,shiguai,40.7058,110.2856,292.84,58,57,2.61,CN,1722894980
357,guatrache,-37.6678,-63.5302,285.19,53,98,4.21,AR,1722894981
358,nadi,-17.8,177.4167,296.15,60,20,2.57,FJ,1722894982
359,arenapolis,-14.4503,-56.8461,300.66,24,0,2.44,BR,1722894983
360,sheridan,44.8333,-106.9173,306.1,33,0,4.63,US,1722894961
361,chulym,55.0997,80.9572,287.55,92,76,2.93,RU,1722894985
362,novyy urgal,51.0736,132.5642,292.78,94,100,1.79,RU,1722894986
363,lagoa,39.05,-27.9833,296.96,85,23,6.23,PT,1722894987
364,jianshui,23.6363,102.8264,291.94,97,93,1.01,CN,1722894988
365,clearwater,27.9659,-82.8001,303.68,82,100,8.05,US,1722894469
366,san andres,12.5847,-81.7006,303.16,79,40,6.69,CO,1722894817
367,nouadhibou,20.931,-17.0347,296.14,83,20,9.26,MR,1722894991
368,tura,25.5198,90.2201,297.33,99,100,2.21,IN,1722894992
369,manokwari,-0.8667,134.0833,299.06,81,69,2.63,ID,1722894994
370,les trois-bassins,-21.1,55.3,287.11,74,6,0.99,RE,1722894995
371,hirara,24.8,125.2833,299.3,100,75,5.66,JP,1722894996
372,sarria,42.7815,-7.4143,288.19,91,3,1.02,ES,1722894997
373,bol'shoye boldino,55.0059,45.3142,291.72,64,100,1.61,RU,1722894998
374,ad dilam,23.9915,47.1627,306.38,11,58,3.02,SA,1722894999
375,kerikeri,-35.2268,173.9474,285.88,93,30,1.34,NZ,1722895000
376,dunoon,55.947,-4.923,288.32,99,97,2.13,GB,1722895001
377,ulladulla,-35.35,150.4667,282.39,77,6,2.62,AU,1722895002
378,pokhara,28.2333,83.9833,294.96,94,100,0.76,NP,1722895003
379,binkolo,8.9533,-11.9779,296.04,99,82,1.45,SL,1722895004
380,chernyshevskiy,63.0128,112.4714,287.76,79,97,1.38,RU,1722895005
381,guiuan,11.0333,125.7247,302.08,73,100,7.5,PH,1722895006
382,carnarvon,-24.8667,113.6333,289.54,64,0,2.46,AU,1722895007
383,pointe aux piments,-20.0628,57.5131,290.66,75,2,3.26,MU,1722895008
384,burang,30.25,81.1667,283.21,79,96,1.83,CN,1722895009
385,kirakira,-10.4544,161.9205,299.41,85,100,4.68,SB,1722895010
386,kamina,-8.7386,24.9906,291.35,21,1,0.96,CD,1722895012
387,guerrero negro,27.9769,-114.0611,300.15,54,99,6.82,MX,1722894991
388,prainha,-1.8,-53.48,302.56,46,5,1.64,BR,1722895014
389,palapye,-22.546,27.1251,288.54,19,0,2.85,BW,1722895015
390,tumayr,25.7039,45.868,303.57,14,71,4.46,SA,1722895016
391,mikuni,36.2171,136.1519,299.1,86,20,0.69,JP,1722895017
392,timimoun,29.2639,0.231,313.36,10,0,2.06,DZ,1722895018
393,constitucion,-35.3333,-72.4167,283.12,81,90,2.67,CL,1722895019
394,rongelap,11.1635,166.8941,301.55,77,100,6.47,MH,1722895020
395,baoding,38.8511,115.4903,298.07,80,31,1.9,CN,1722895021
396,broome,42.2506,-75.833,298.25,89,85,1.46,US,1722895022
397,visakhapatnam,17.69,83.2093,301.8,76,100,3.69,IN,1722895023
398,edson,53.5835,-116.4356,287.23,88,100,3.09,CA,1722895024
399,anavyssos,37.7333,23.95,303.26,57,15,1.91,GR,1722895025
400,taunggyi,20.7833,97.0333,291.09,98,100,1.42,MM,1722895026
401,gamba,-2.65,10.0,294.24,87,52,2.37,GA,1722895027
402,itoman,26.1247,127.6694,301.36,96,75,5.66,JP,1722895029
403,zabol,32.25,67.25,298.27,54,0,6.77,AF,1722895030
404,upington,-28.4478,21.2561,277.36,41,0,0.51,ZA,1722895032
405,franklin,39.9667,-83.0166,306.63,55,75,5.66,US,1722894321
406,apac,1.9756,32.5386,291.87,91,65,1.56,UG,1722895034
407,margate,51.3813,1.3862,291.1,78,1,4.45,GB,1722895035
408,port moresby,-9.4431,147.1797,297.93,80,97,3.08,PG,1722895036
409,kendall west,25.7065,-80.4388,306.49,70,75,5.66,US,1722895037
410,brak,27.5496,14.2714,306.58,13,0,6.01,LY,1722895038
411,ilha de mocambique,-15.0342,40.7358,296.66,74,15,2.74,MZ,1722895039
412,tindouf,27.6711,-8.1474,313.4,9,1,7.2,DZ,1722895040
413,hasaki,35.7333,140.8333,300.53,83,2,4.04,JP,1722895041
414,kartaly,53.0522,60.6467,290.96,89,100,3.25,RU,1722895042
415,christchurch,-43.5333,172.6333,281.16,86,0,1.42,NZ,1722894961
416,eyl,7.9803,49.8164,297.8,81,82,10.21,SO,1722895044
417,sao joao da barra,-21.6403,-41.0511,296.2,83,0,8.21,BR,1722895047
418,quellon,-43.1167,-73.6167,281.05,92,100,7.26,CL,1722895049
419,uran,18.8769,72.9397,300.13,89,81,6.07,IN,1722895050
420,los frentones,-26.4077,-61.4137,293.57,65,69,1.78,AR,1722895053
421,port shepstone,-30.7414,30.455,287.34,75,13,3.07,ZA,1722895054
422,arteche,12.2645,125.4048,298.35,93,100,1.73,PH,1722895055
423,shengli,37.4564,118.4856,299.18,89,68,0.74,CN,1722895056
424,mulanje,-16.0316,35.5,293.3,30,1,1.93,MW,1722895057
425,sarmiento,-45.5882,-69.07,277.36,98,100,6.5,AR,1722895058
426,ust'-kut,56.7938,105.7672,286.17,82,7,0.37,RU,1722895059
427,charters towers,-20.1,146.2667,289.37,80,33,2.08,AU,1722895060
428,mount pearl,47.5166,-52.7813,295.34,92,75,9.26,CA,1722895061
429,palikir - national government center,6.9248,158.1611,301.61,74,71,4.82,FM,1722895062
430,suntar,62.1444,117.6319,287.52,87,12,2.06,RU,1722895063
431,regina,50.4501,-104.6178,295.95,52,75,6.17,CA,1722895007
432,wenshui,28.4506,106.5267,293.54,96,22,1.72,CN,1722895066
433,motupe,-6.1519,-79.7142,296.72,49,6,5.1,PE,1722895067
434,bulolo,-7.2,146.65,295.93,91,84,0.66,PG,1722895068
435,minas novas,-17.2186,-42.5903,294.16,67,96,1.13,BR,1722894935
436,guozhen,34.3659,107.359,296.31,86,2,1.7,CN,1722895070
437,xining,36.6167,101.7667,287.89,82,85,0.94,CN,1722895071
438,imbituba,-28.24,-48.6703,293.63,97,3,1.68,BR,1722895072
439,jiuquan,39.7432,98.5174,298.08,32,70,3.01,CN,1722895073
440,laboulaye,-34.1266,-63.3912,288.47,60,0,4.13,AR,1722895074
441,tomatlan,19.9333,-105.25,303.93,73,78,2.09,MX,1722895076
442,mili,6.0815,171.735,300.95,78,52,4.27,MH,1722895077
443,qa'en,33.7265,59.1844,297.27,25,0,3.61,IR,1722895078
444,turinskaya sloboda,57.6232,64.3858,288.41,96,94,1.4,RU,1722895080
445,geraldton,-28.7667,114.6,281.38,93,0,6.17,AU,1722895081
446,balaklava,44.5,33.6,297.25,54,71,3.66,UA,1722895082
447,dossor,47.5272,52.9811,300.66,35,16,2.96,KZ,1722895083
448,cold lake,54.4502,-110.2017,289.12,94,100,4.63,CA,1722895084
449,island harbour,50.724,-1.2758,292.19,78,83,0.89,GB,1722895085
450,bhuban,20.8833,85.8333,300.53,83,100,1.8,IN,1722895086
451,alipur,29.3846,70.9116,302.11,79,95,5.7,PK,1722895087
452,sunland park,31.7965,-106.58,308.75,22,20,4.92,US,1722895088
453,kabo,7.6994,18.629,295.1,95,91,1.14,CF,1722895089
454,polyarnyy,69.1989,33.4478,282.01,77,3,1.77,RU,1722895090
455,tashtyp,52.7939,89.8983,285.65,94,70,1.48,RU,1722895091
456,khuzdar,27.7384,66.6434,298.41,75,70,0.97,PK,1722895092
457,eastham,41.8301,-69.9739,301.57,74,0,3.6,US,1722895093
458,woolgoolga,-30.1106,153.2007,287.62,90,88,1.9,AU,1722895094
459,kingston,17.997,-76.7936,305.68,66,20,10.29,JM,1722894665
460,tenno,39.9,139.9667,296.71,83,52,0.98,JP,1722895097
461,mugia,43.1041,-9.2179,294.35,95,54,0.89,ES,1722895098
462,at tall al kabir,30.5445,31.7853,299.85,58,1,1.53,EG,1722895099
463,nikolayevsk-on-amure,53.1406,140.73,290.28,81,100,1.15,RU,1722895100
464,demidov,55.2706,31.515,287.9,91,98,0.87,RU,1722895101
465,petawawa,45.9001,-77.3328,289.7,86,100,0.89,CA,1722895102
466,taltal,-25.4,-70.4833,288.76,69,18,1.34,CL,1722895103
467,bayside,40.8424,-124.0637,302.39,81,100,3.6,US,1722895104
468,ujae,8.9322,165.7642,301.81,73,61,3.27,MH,1722895105
469,grand falls-windsor,48.9332,-55.6649,296.76,88,100,3.89,CA,1722894885
470,kudahuvadhoo,2.6708,72.8944,301.63,74,100,4.28,MV,1722895107
471,andovoranto,-18.95,49.1,293.56,89,94,2.26,MG,1722895108
472,manta,-0.95,-80.7333,301.03,69,75,5.14,EC,1722894885
473,vale da amoreira,39.0697,-7.6985,293.18,67,0,3.94,PT,1722895110
474,kolonia town,6.964,158.206,302.22,74,70,4.84,FM,1722895113
475,dadukou,26.5479,101.7054,294.95,96,100,0.29,CN,1722895114
476,kiuruvesi,63.65,26.6167,285.1,82,99,1.33,FI,1722895115
477,hithadhoo,-0.6,73.0833,301.39,74,100,0.88,MV,1722895116
478,santiago de cao,-7.9589,-79.2392,291.22,82,7,5.14,PE,1722895117
479,fort mcmurray,56.7268,-111.381,295.92,46,0,6.17,CA,1722895118
480,mukalla,14.5425,49.1242,301.88,78,99,2.43,YE,1722895119
481,chui,-33.6971,-53.4616,287.52,92,100,5.74,UY,1722895120
482,labytnangi,66.6572,66.4183,278.62,70,9,4.76,RU,1722895121
483,nuuk,64.1835,-51.7216,279.75,83,100,1.94,GL,1722895027
484,novodvinsk,64.4165,40.8122,286.01,65,100,2.71,RU,1722895123
485,sterling,39.0062,-77.4286,308.48,42,0,2.06,US,1722895124
486,chiras,35.4167,65.9823,283.49,43,0,1.2,AF,1722895125
487,chifeng,42.2683,118.9636,293.9,66,1,1.98,CN,1722895126
488,ugoofaaru,5.6667,73.0,301.02,75,100,2.12,MV,1722895127
489,raduzhny,62.0961,77.475,284.34,85,100,4.69,RU,1722895128
490,kalmunai,7.4167,81.8167,300.48,81,99,1.43,LK,1722895129
491,zemio,5.0314,25.1361,293.53,95,100,0.3,CF,1722895130
492,bonthe,7.5264,-12.505,297.75,89,68,3.92,SL,1722895132
493,yartsevo,55.0667,32.6964,287.53,91,100,1.33,RU,1722895133
494,wad rawah,15.1603,33.1397,299.87,72,90,6.11,SD,1722895134
495,gonzalez,30.5816,-87.2914,308.61,57,0,4.63,US,1722895135
496,lerwick,60.1545,-1.1494,287.15,93,98,0.31,GB,1722895136
497,saldanha,-33.0117,17.9442,283.18,83,1,3.9,ZA,1722895137
498,praia da vitoria,38.7333,-27.0667,300.29,74,20,2.21,PT,1722895138
499,tamanrasset,22.785,5.5228,305.1,19,40,3.6,DZ,1722895139
500,poronaysk,49.2167,143.1167,287.89,90,90,3.95,RU,1722895140
501,ghanzi,-21.5667,21.7833,285.08,25,1,3.79,BW,1722895141
502,hoemul-li,41.4339,129.67,297.08,98,100,1.21,KP,1722895142
503,nyurba,63.2842,118.3319,288.04,83,69,3.0,RU,1722895143
504,princeville,45.7668,-61.2985,299.14,79,0,4.12,CA,1722895144
505,new plymouth,-39.0667,174.0833,284.47,74,38,1.41,NZ,1722895146
506,mendi,-6.1761,143.6513,286.55,92,66,1.11,PG,1722895148
507,ubari,26.5921,12.7805,306.94,13,0,6.32,LY,1722895149
508,nasirabad,26.3,74.7333,296.63,89,100,6.45,IN,1722895150
509,burutu,5.3509,5.5076,298.06,81,89,3.8,NG,1722895151
510,san pedro pochutla,15.7333,-96.4667,305.21,69,85,2.41,MX,1722895152
511,kyzyl,51.7,94.45,289.69,88,100,3.63,RU,1722895153
512,longview,32.5007,-94.7405,308.12,41,40,2.06,US,1722894942
513,kalianget,-7.05,113.9333,298.26,81,72,4.6,ID,1722895155
514,frenda,35.0654,1.0495,299.58,31,0,1.83,DZ,1722895156
515,barcarena,-1.5058,-48.6258,303.18,73,51,7.07,BR,1722895157
516,la ronge,55.1001,-105.2842,294.29,43,100,3.09,CA,1722895057
517,nemuro,43.3236,145.575,290.37,98,86,2.61,JP,1722895159
518,kisanga,-7.4362,37.7034,293.28,73,0,1.52,TZ,1722895161
519,yugorsk,61.3133,63.3319,288.33,97,100,3.85,RU,1722895162
520,barra de santo antonio,-9.4047,-35.5072,295.75,76,20,5.52,BR,1722895163
521,urangan,-25.3,152.9,291.81,77,16,2.1,AU,1722895164
522,dyurtyuli,55.4911,54.8688,288.75,94,8,2.72,RU,1722895165
523,amga,60.8953,131.9608,282.89,97,100,3.04,RU,1722895166
524,chagoda,59.164,35.3285,286.28,98,28,1.65,RU,1722895167
525,nabire,-3.3667,135.4833,296.93,93,66,1.21,ID,1722895168
526,dokkum,53.3222,5.997,291.48,89,14,1.54,NL,1722895169
527,greenville,35.6127,-77.3663,303.24,76,40,6.17,US,1722895170
528,arkhangel'sk,64.5401,40.5433,286.21,82,40,3.0,RU,1722895172
529,quirinopolis,-18.4483,-50.4517,298.18,28,0,1.33,BR,1722895173
530,kenai,60.5544,-151.2583,296.2,52,0,7.2,US,1722895174
531,zaozersk,69.4005,32.4476,280.18,92,10,1.8,RU,1722895175
532,choele choel,-39.2667,-65.6833,288.19,36,100,4.36,AR,1722895152
533,thinadhoo,0.5333,72.9333,301.6,70,100,1.92,MV,1722895178
534,reggane,26.7158,0.1714,313.52,9,15,3.94,DZ,1722895179
535,thouars,46.976,-0.2151,290.73,86,0,3.12,FR,1722895180
536,el calafate,-50.3408,-72.2768,272.52,89,90,1.23,AR,1722895181
537,corpus christi,27.8006,-97.3964,307.2,68,40,5.66,US,1722895182
538,timber pines,28.4703,-82.6032,303.21,79,100,1.79,US,1722895183
539,ouesso,1.6136,16.0517,296.72,76,84,0.47,CG,1722895184
540,guangming,45.3333,122.7833,294.45,75,0,2.77,CN,1722895185
541,plettenberg bay,-34.0527,23.3716,285.08,50,0,1.58,ZA,1722895186
542,magadan,59.5667,150.8,286.72,78,100,2.96,RU,1722895188
543,san antonio de pale,-1.4014,5.6325,295.34,74,100,4.55,GQ,1722895189
544,atasu,48.6814,71.6433,294.07,44,96,2.58,KZ,1722895190
545,jacaltenango,15.6667,-91.7333,301.84,99,100,1.17,GT,1722895192
546,riva del garda,45.8858,10.8412,298.48,59,16,0.97,IT,1722895193
547,port saint john's,-31.6229,29.5448,286.1,77,0,2.24,ZA,1722895194
548,faya-largeau,17.9257,19.1043,303.1,59,100,6.09,TD,1722895195
549,korenevo,55.6719,38.0078,291.95,100,0,1.0,RU,1722895196
550,boda,4.3189,17.4695,294.33,95,98,0.05,CF,1722895197
551,bardai,11.65,7.2333,295.04,93,100,2.54,NG,1722895198
552,misantla,19.9333,-96.8333,301.28,79,65,1.43,MX,1722895199
553,padang,-0.9492,100.3543,298.18,88,48,2.34,ID,1722895200
554,asahikawa,43.7678,142.3703,293.71,88,100,1.03,JP,1722895201
555,katsuren-haebaru,26.3369,127.8719,301.36,92,75,4.12,JP,1722895202
556,plastun,44.7561,136.2939,290.2,69,38,0.75,RU,1722895203
557,tazacorte,28.629,-17.9293,295.69,92,0,5.14,ES,1722895204
558,ventnor,50.5948,-1.2037,291.88,85,81,4.75,GB,1722895205
559,nagqu,31.5,92.0,276.68,81,5,0.95,CN,1722895208
560,orkney,-26.9802,26.6727,279.64,41,0,1.2,ZA,1722895209
561,trairi,-3.2778,-39.2689,298.5,79,98,6.34,BR,1722895046
562,pacific grove,36.6177,-121.9166,299.27,87,100,4.12,US,1722895211
563,union de reyes,22.7953,-81.5375,304.31,67,96,3.93,CU,1722895212
564,marion,39.7684,-86.1555,306.8,57,40,3.6,US,1722894960
565,malango,-2.9627,119.9001,290.74,98,16,1.24,ID,1722895214
566,rajpur,22.3,74.35,297.74,90,89,5.54,IN,1722895215
567,ebaye,8.7748,167.7392,301.16,83,0,3.09,MH,1722895216
568,touros,-5.1989,-35.4608,297.23,77,46,6.77,BR,1722894957
569,nova vicosa,-17.8919,-39.3719,295.19,75,0,3.04,BR,1722895218
570,kambarka,56.2694,54.2062,288.42,94,0,1.83,RU,1722895219
571,koster,-25.863,26.8976,278.47,36,1,3.23,ZA,1722895220
